[
    {
        "name": "South side mower repairs",
        "phone": "+13147768238",
        "location": "3200 Morganford Rd, Saint Louis, MO 63116"
    },
    {
        "name": "Henry David Photography",
        "phone": "+13148778877",
        "location": "9400 Sonora Ave, St. Louis, MO 63144"
    },
    {
        "name": "Liberty Blasting",
        "phone": "+16363435410",
        "location": "209 Seebold Spur, Fenton, MO 63026"
    },
    {
        "name": "Gateway Chimney Service",
        "phone": "+13145967999",
        "location": "St. Louis, MO 63139"
    },
    {
        "name": "Fehlig Bros Box & Lumber",
        "phone": "+13142416900",
        "location": "1909 Cole St, Saint Louis, MO 63106"
    },
    {
        "name": "Shamoneece Mills Mobile Notary",
        "phone": "+13146436226",
        "location": "University City, MO 63130"
    },
    {
        "name": "Ramp Riders",
        "phone": "+13147764025",
        "location": "2324 Salena St, Saint Louis, MO 63104"
    },
    {
        "name": "JL Accounting",
        "phone": "+13146471758",
        "location": "6579 Smiley Ave, Saint Louis, MO 63139"
    },
    {
        "name": "Techs-4u",
        "phone": "+13144872732",
        "location": "11142 Lindbergh Business Ct, Ste 105, St. Louis, MO 63123"
    },
    {
        "name": "We Rent It",
        "phone": "+13146647368",
        "location": "2616 Brannon Ave, Saint Louis, MO 63139"
    },
    {
        "name": "Brody's Lamps & Lamp Shades",
        "phone": "+13146473318",
        "location": "2300 S Big Bend Blvd, Saint Louis, MO 63143"
    },
    {
        "name": "Cafe Dolce",
        "phone": "+13142820332",
        "location": "5143 Daggett Ave, St Louis, MO 63110"
    },
    {
        "name": "Sunshine Carpet Cleaners",
        "phone": "+16362969736",
        "location": "Fenton, MO 63026"
    },
    {
        "name": "Voss Spray Painting",
        "phone": "+13147717711",
        "location": "3887 Fairview Ave, Saint Louis, MO 63116"
    },
    {
        "name": "Acme Guitars",
        "phone": "+13146456670",
        "location": "6336 Clayton Ave, Saint Louis, MO 63139"
    },
    {
        "name": "Unlock It Locksmith",
        "phone": "+13144959058",
        "location": "Saint Louis, MO 63130"
    },
    {
        "name": "Planet Health",
        "phone": "+16365278888",
        "location": "5A Clarkson Rd, Ellisville, MO 63011"
    },
    {
        "name": "Hoppy's Self Service Inc",
        "phone": "+13146451100",
        "location": "2723 Ivanhoe Ave, Saint Louis, MO 63139"
    },
    {
        "name": "Veteran's Pride Wildlife Control",
        "phone": "+16189770503",
        "location": "8625 Lackland Rd, Overland, MO 63114"
    }
]